{
"type": "FeatureCollection",
"crs": { "type": "name", "properties": { "name": "urn:ogc:def:crs:OGC:1.3:CRS84" } },
"features": [
{ "type": "Feature", "properties": { "osmid": 454653397, "name": "Spar", "addr:street": null, "lon": -1019741.5942865323, "lat": 4690077.3429162893 }, "geometry": { "type": "Point", "coordinates": [ -9.1604946, 38.7790901 ] } },
{ "type": "Feature", "properties": { "osmid": 583885964, "name": "Coviran Supermercado", "addr:street": "Rua Dom Jorge da Costa", "lon": -1025032.6430797837, "lat": 4680356.1598931868 }, "geometry": { "type": "Point", "coordinates": [ -9.2080249, 38.7109805 ] } },
{ "type": "Feature", "properties": { "osmid": 675649774, "name": "Continente", "addr:street": null, "lon": -1023036.4731028278, "lat": 4686588.8329824368 }, "geometry": { "type": "Point", "coordinates": [ -9.190093, 38.754656 ] } },
{ "type": "Feature", "properties": { "osmid": 675696721, "name": "Pingo Doce", "addr:street": "Avenida Maria Helena Vieira da Silva", "lon": -1018974.369224036, "lat": 4688346.4234511005 }, "geometry": { "type": "Point", "coordinates": [ -9.1536025, 38.7669675 ] } },
{ "type": "Feature", "properties": { "osmid": 886044334, "name": "Lidl", "addr:street": null, "lon": -1019614.9794977041, "lat": 4687487.1984265689 }, "geometry": { "type": "Point", "coordinates": [ -9.1593572, 38.7609491 ] } },
{ "type": "Feature", "properties": { "osmid": 954710515, "name": "Pingo Doce", "addr:street": null, "lon": -1025838.0729915203, "lat": 4678136.9179115612 }, "geometry": { "type": "Point", "coordinates": [ -9.2152602, 38.6954227 ] } },
{ "type": "Feature", "properties": { "osmid": 1189485655, "name": "Lidl", "addr:street": null, "lon": -1016002.7956048511, "lat": 4682745.5750980005 }, "geometry": { "type": "Point", "coordinates": [ -9.1269084, 38.7277275 ] } },
{ "type": "Feature", "properties": { "osmid": 1195817339, "name": "Pingo Doce", "addr:street": null, "lon": -1023100.6933170664, "lat": 4685711.7143873787 }, "geometry": { "type": "Point", "coordinates": [ -9.1906699, 38.7485112 ] } },
{ "type": "Feature", "properties": { "osmid": 1283996574, "name": "Lidl", "addr:street": null, "lon": -1024796.6012315059, "lat": 4685367.0997232022 }, "geometry": { "type": "Point", "coordinates": [ -9.2059045, 38.746096799999989 ] } },
{ "type": "Feature", "properties": { "osmid": 1301495554, "name": "Minipreço", "addr:street": "Rua Alexandre Ferreira", "lon": -1020028.4646143066, "lat": 4689708.5772667015 }, "geometry": { "type": "Point", "coordinates": [ -9.1630716, 38.7765076 ] } },
{ "type": "Feature", "properties": { "osmid": 1301636304, "name": "Pingo Doce", "addr:street": null, "lon": -1021115.8890601207, "lat": 4688541.766487848 }, "geometry": { "type": "Point", "coordinates": [ -9.1728401, 38.7683357 ] } },
{ "type": "Feature", "properties": { "osmid": 1301636336, "name": "Continente", "addr:street": null, "lon": -1021412.0768292743, "lat": 4688046.1204638649 }, "geometry": { "type": "Point", "coordinates": [ -9.1755008, 38.7648641 ] } },
{ "type": "Feature", "properties": { "osmid": 1404967903, "name": "Pingo Doce", "addr:street": null, "lon": -1020109.4718077568, "lat": 4681058.544488607 }, "geometry": { "type": "Point", "coordinates": [ -9.1637993, 38.7159038 ] } },
{ "type": "Feature", "properties": { "osmid": 1406257931, "name": "Pingo Doce", "addr:street": null, "lon": -1017324.2915439563, "lat": 4681889.8041856131 }, "geometry": { "type": "Point", "coordinates": [ -9.1387796, 38.72173 ] } },
{ "type": "Feature", "properties": { "osmid": 1411570163, "name": "Continente", "addr:street": null, "lon": -1019332.3281786309, "lat": 4681305.4812676245 }, "geometry": { "type": "Point", "coordinates": [ -9.1568181, 38.7176346 ] } },
{ "type": "Feature", "properties": { "osmid": 1411581863, "name": "Jumbo Pão de Açucar", "addr:street": "Avenida Engenheiro Duarte Pacheco", "lon": -1019855.7746882389, "lat": 4682076.6051066341 }, "geometry": { "type": "Point", "coordinates": [ -9.1615203, 38.7230392 ] } },
{ "type": "Feature", "properties": { "osmid": 1423154465, "name": "Pingo Doce", "addr:street": null, "lon": -1019296.1270802249, "lat": 4680236.8393543167 }, "geometry": { "type": "Point", "coordinates": [ -9.1564929, 38.7101441 ] } },
{ "type": "Feature", "properties": { "osmid": 1427043401, "name": "Lidl", "addr:street": "Rua Leão de Oliveira", "lon": -1021842.4936404264, "lat": 4679507.2226279769 }, "geometry": { "type": "Point", "coordinates": [ -9.1793673, 38.7050295 ] } },
{ "type": "Feature", "properties": { "osmid": 1587000944, "name": "Supermercado C.C. Boa-Hora", "addr:street": null, "lon": -1023632.4553926368, "lat": 4679320.1834726119 }, "geometry": { "type": "Point", "coordinates": [ -9.1954468, 38.7037183 ] } },
{ "type": "Feature", "properties": { "osmid": 1587055408, "name": "Pingo Doce", "addr:street": null, "lon": -1019126.4650443068, "lat": 4681788.1723386375 }, "geometry": { "type": "Point", "coordinates": [ -9.1549688, 38.7210177 ] } },
{ "type": "Feature", "properties": { "osmid": 1616546812, "name": "Lidl", "addr:street": null, "lon": -1016619.6725630821, "lat": 4681895.4971970357 }, "geometry": { "type": "Point", "coordinates": [ -9.1324499, 38.7217699 ] } },
{ "type": "Feature", "properties": { "osmid": 1650291981, "name": "Pingo Doce", "addr:street": null, "lon": -1017054.9762998802, "lat": 4684681.5019222312 }, "geometry": { "type": "Point", "coordinates": [ -9.1363603, 38.7412932 ] } },
{ "type": "Feature", "properties": { "osmid": 1669134193, "name": "Pingo Doce", "addr:street": null, "lon": -1017494.4990453791, "lat": 4685659.7159924814 }, "geometry": { "type": "Point", "coordinates": [ -9.1403086, 38.7481469 ] } },
{ "type": "Feature", "properties": { "osmid": 1679831451, "name": "Pingo Doce", "addr:street": null, "lon": -1017706.9745574564, "lat": 4683789.9198268391 }, "geometry": { "type": "Point", "coordinates": [ -9.1422173, 38.7350459 ] } },
{ "type": "Feature", "properties": { "osmid": 1704809552, "name": "Pingo Doce", "addr:street": null, "lon": -1021361.0257107965, "lat": 4679355.4884197135 }, "geometry": { "type": "Point", "coordinates": [ -9.1750422, 38.7039658 ] } },
{ "type": "Feature", "properties": { "osmid": 1708304062, "name": "Continente", "addr:street": "Avenida Campo Grande", "lon": -1018435.1932703787, "lat": 4685626.5159483058 }, "geometry": { "type": "Point", "coordinates": [ -9.148759, 38.7479143 ] } },
{ "type": "Feature", "properties": { "osmid": 1728481862, "name": "Minipreço", "addr:street": null, "lon": -1015774.0229193219, "lat": 4684211.4182335651 }, "geometry": { "type": "Point", "coordinates": [ -9.1248533, 38.7379994 ] } },
{ "type": "Feature", "properties": { "osmid": 1728481891, "name": "Pingo Doce", "addr:street": null, "lon": -1015769.8484384172, "lat": 4684401.9009870626 }, "geometry": { "type": "Point", "coordinates": [ -9.1248158, 38.7393341 ] } },
{ "type": "Feature", "properties": { "osmid": 1743698832, "name": "Centro Comercial Acqua Roma", "addr:street": "Avenida de Roma", "lon": -1017347.4682619396, "lat": 4684970.2021111939 }, "geometry": { "type": "Point", "coordinates": [ -9.1389878, 38.743316 ] } },
{ "type": "Feature", "properties": { "osmid": 1743702474, "name": "Minipreço", "addr:street": null, "lon": -1016778.0579345827, "lat": 4684946.8951333929 }, "geometry": { "type": "Point", "coordinates": [ -9.1338727, 38.7431527 ] } },
{ "type": "Feature", "properties": { "osmid": 1759710677, "name": "Pingo Doce", "addr:street": null, "lon": -1012971.387759365, "lat": 4691372.6479532756 }, "geometry": { "type": "Point", "coordinates": [ -9.0996768, 38.7881605 ] } },
{ "type": "Feature", "properties": { "osmid": 1800083267, "name": "Miosótis", "addr:street": "Rua Marquês Sá da Bandeira", "lon": -1018788.7551050872, "lat": 4683655.7746758265 }, "geometry": { "type": "Point", "coordinates": [ -9.1519351, 38.7341059 ] } },
{ "type": "Feature", "properties": { "osmid": 1828482148, "name": "Minipreço", "addr:street": null, "lon": -1016302.0112641543, "lat": 4681895.254637586 }, "geometry": { "type": "Point", "coordinates": [ -9.1295963, 38.7217682 ] } },
{ "type": "Feature", "properties": { "osmid": 1846910707, "name": "Minipreço", "addr:street": "Rua José Estevão", "lon": -1017210.2113297915, "lat": 4683178.4035063107 }, "geometry": { "type": "Point", "coordinates": [ -9.1377548, 38.7307607 ] } },
{ "type": "Feature", "properties": { "osmid": 1905062573, "name": "Minipreço", "addr:street": null, "lon": -1019499.4298662605, "lat": 4684917.5081503969 }, "geometry": { "type": "Point", "coordinates": [ -9.1583192, 38.7429468 ] } },
{ "type": "Feature", "properties": { "osmid": 1913049276, "name": "Supercor", "addr:street": "Alameda dos Oceanos", "lon": -1012532.2657640328, "lat": 4689395.6260087751 }, "geometry": { "type": "Point", "coordinates": [ -9.0957321, 38.7743159 ] } },
{ "type": "Feature", "properties": { "osmid": 1916909276, "name": "Minipreço", "addr:street": "Rua de São Bento", "lon": -1018869.3170205744, "lat": 4680275.5998306079 }, "geometry": { "type": "Point", "coordinates": [ -9.1526588, 38.7104158 ] } },
{ "type": "Feature", "properties": { "osmid": 1929175968, "name": "Pingo Doce", "addr:street": "Largo do Chão do Loureiro", "lon": -1016916.0384434211, "lat": 4680522.4320539199 }, "geometry": { "type": "Point", "coordinates": [ -9.1351122, 38.712146 ] } },
{ "type": "Feature", "properties": { "osmid": 1944444791, "name": "Lidl", "addr:street": null, "lon": -1023309.8292444199, "lat": 4685783.2393766921 }, "geometry": { "type": "Point", "coordinates": [ -9.1925486, 38.7490123 ] } },
{ "type": "Feature", "properties": { "osmid": 1955009599, "name": "Pingo Doce", "addr:street": null, "lon": -1020338.9235421801, "lat": 4686410.8851965051 }, "geometry": { "type": "Point", "coordinates": [ -9.1658605, 38.7534094 ] } },
{ "type": "Feature", "properties": { "osmid": 1987677738, "name": "Lidl", "addr:street": null, "lon": -1018613.8833170001, "lat": 4684170.088213251 }, "geometry": { "type": "Point", "coordinates": [ -9.1503642, 38.7377098 ] } },
{ "type": "Feature", "properties": { "osmid": 2066948729, "name": "Supermercado El Corte Inglés", "addr:street": null, "lon": -1019000.484776576, "lat": 4683568.6954386793 }, "geometry": { "type": "Point", "coordinates": [ -9.1538371, 38.7334957 ] } },
{ "type": "Feature", "properties": { "osmid": 2295708194, "name": "Supercor", "addr:street": "Avenida Ilha da Madeira", "lon": -1025091.6090140569, "lat": 4679646.3630407378 }, "geometry": { "type": "Point", "coordinates": [ -9.2085546, 38.7060049 ] } },
{ "type": "Feature", "properties": { "osmid": 2302731647, "name": "Muita Fruta", "addr:street": null, "lon": -1014501.6856673511, "lat": 4686563.2383437734 }, "geometry": { "type": "Point", "coordinates": [ -9.1134237, 38.7544767 ] } },
{ "type": "Feature", "properties": { "osmid": 2302745574, "name": "Minipreço", "addr:street": null, "lon": -1014624.3931420526, "lat": 4686365.5779540185 }, "geometry": { "type": "Point", "coordinates": [ -9.114526, 38.753092 ] } },
{ "type": "Feature", "properties": { "osmid": 2361713282, "name": "Pingo Doce", "addr:street": null, "lon": -1018378.8878719354, "lat": 4684248.8951164782 }, "geometry": { "type": "Point", "coordinates": [ -9.1482532, 38.738262 ] } },
{ "type": "Feature", "properties": { "osmid": 2412722302, "name": "Continente", "addr:street": "Avenida Defensores de Chaves", "lon": -1017699.9725614856, "lat": 4683587.018834848 }, "geometry": { "type": "Point", "coordinates": [ -9.1421544, 38.7336241 ] } },
{ "type": "Feature", "properties": { "osmid": 2414810219, "name": "Pingo Doce", "addr:street": "Rua de Campolide", "lon": -1019964.4893029477, "lat": 4682546.3905906733 }, "geometry": { "type": "Point", "coordinates": [ -9.1624969, 38.7263316 ] } },
{ "type": "Feature", "properties": { "osmid": 2440227039, "name": "Frutaria da Alta", "addr:street": null, "lon": -1018481.2461437199, "lat": 4690386.6594188735 }, "geometry": { "type": "Point", "coordinates": [ -9.1491727, 38.7812562 ] } },
{ "type": "Feature", "properties": { "osmid": 2441312575, "name": "Pingo Doce", "addr:street": null, "lon": -1015468.7960075157, "lat": 4680833.1992086237 }, "geometry": { "type": "Point", "coordinates": [ -9.1221114, 38.7143243 ] } },
{ "type": "Feature", "properties": { "osmid": 2460598097, "name": "Dia", "addr:street": "Rua Carlos Mardel", "lon": -1015088.4729672206, "lat": 4682528.083333916 }, "geometry": { "type": "Point", "coordinates": [ -9.1186949, 38.7262033 ] } },
{ "type": "Feature", "properties": { "osmid": 2462019049, "name": "Casa das Bananas", "addr:street": null, "lon": -1019342.6697593253, "lat": 4684838.4391753897 }, "geometry": { "type": "Point", "coordinates": [ -9.156911, 38.7423928 ] } },
{ "type": "Feature", "properties": { "osmid": 2505796700, "name": "Pingo Doce", "addr:street": null, "lon": -1017993.8337532816, "lat": 4686430.1130001899 }, "geometry": { "type": "Point", "coordinates": [ -9.1447942, 38.7535441 ] } },
{ "type": "Feature", "properties": { "osmid": 2516634850, "name": "Lidl", "addr:street": null, "lon": -1021142.9619602815, "lat": 4685850.9537785118 }, "geometry": { "type": "Point", "coordinates": [ -9.1730833, 38.7494867 ] } },
{ "type": "Feature", "properties": { "osmid": 2620372114, "name": "Pingo Doce", "addr:street": "Rua 1º de Dezembro", "lon": -1017493.0630239479, "lat": 4680747.6135343015 }, "geometry": { "type": "Point", "coordinates": [ -9.1402957, 38.7137244 ] } },
{ "type": "Feature", "properties": { "osmid": 2653524272, "name": "Pingo Doce", "addr:street": null, "lon": -1018515.8108456114, "lat": 4683310.3733073482 }, "geometry": { "type": "Point", "coordinates": [ -9.1494832, 38.7316855 ] } },
{ "type": "Feature", "properties": { "osmid": 2687340255, "name": "Minipreço", "addr:street": "Estrada de Benfica", "lon": -1022673.749674027, "lat": 4685511.2586809341 }, "geometry": { "type": "Point", "coordinates": [ -9.1868346, 38.7471068 ] } },
{ "type": "Feature", "properties": { "osmid": 2819531676, "name": "Celeiro", "addr:street": "Praça de Alvalade", "lon": -1018036.4802502044, "lat": 4686342.8387617432 }, "geometry": { "type": "Point", "coordinates": [ -9.1451773, 38.7529327 ] } },
{ "type": "Feature", "properties": { "osmid": 2825589390, "name": "Amor Bio", "addr:street": "Praça de Alvalade", "lon": -1017918.0919717458, "lat": 4686486.8687778497 }, "geometry": { "type": "Point", "coordinates": [ -9.1441138, 38.7539417 ] } },
{ "type": "Feature", "properties": { "osmid": 3003098133, "name": "Minipreço", "addr:street": "Praça Cidade Salazar", "lon": -1015051.0250905178, "lat": 4687950.723221913 }, "geometry": { "type": "Point", "coordinates": [ -9.1183585, 38.7641959 ] } },
{ "type": "Feature", "properties": { "osmid": 3003135433, "name": "Pingo Doce", "addr:street": null, "lon": -1014566.4847429419, "lat": 4687656.5992465215 }, "geometry": { "type": "Point", "coordinates": [ -9.1140058, 38.7621357 ] } },
{ "type": "Feature", "properties": { "osmid": 3020942754, "name": "Continente", "addr:street": null, "lon": -1017655.3668415247, "lat": 4683265.0941162612 }, "geometry": { "type": "Point", "coordinates": [ -9.1417537, 38.7313682 ] } },
{ "type": "Feature", "properties": { "osmid": 3045945177, "name": "Minipreço", "addr:street": "Avenida Duque de Loulé", "lon": -1018192.8618708709, "lat": 4682612.0144569147 }, "geometry": { "type": "Point", "coordinates": [ -9.1465821, 38.7267915 ] } },
{ "type": "Feature", "properties": { "osmid": 3128386596, "name": "Pingo Doce", "addr:street": null, "lon": -1022069.5742696958, "lat": 4686589.9321401399 }, "geometry": { "type": "Point", "coordinates": [ -9.1814072, 38.7546637 ] } },
{ "type": "Feature", "properties": { "osmid": 3148820096, "name": "Supermercado Rocha", "addr:street": null, "lon": -1018526.9539266396, "lat": 4684341.3891099161 }, "geometry": { "type": "Point", "coordinates": [ -9.1495833, 38.7389101 ] } },
{ "type": "Feature", "properties": { "osmid": 3208031896, "name": "Minipreço", "addr:street": null, "lon": -1016364.8845125546, "lat": 4681289.0737967547 }, "geometry": { "type": "Point", "coordinates": [ -9.1301611, 38.7175196 ] } },
{ "type": "Feature", "properties": { "osmid": 3233295221, "name": "Meu Super", "addr:street": "Alameda dos Oceanos", "lon": -1012486.2908143352, "lat": 4689922.324062271 }, "geometry": { "type": "Point", "coordinates": [ -9.0953191, 38.7780045 ] } },
{ "type": "Feature", "properties": { "osmid": 3233295222, "name": "Minipreço", "addr:street": "Alameda dos Oceanos", "lon": -1012492.3799904818, "lat": 4689961.4212625828 }, "geometry": { "type": "Point", "coordinates": [ -9.0953738, 38.7782783 ] } },
{ "type": "Feature", "properties": { "osmid": 3466058325, "name": "Pingo Doce", "addr:street": null, "lon": -1016811.7543444459, "lat": 4683364.1434998782 }, "geometry": { "type": "Point", "coordinates": [ -9.1341754, 38.73206230000001 ] } },
{ "type": "Feature", "properties": { "osmid": 3500843589, "name": "Minipreço", "addr:street": "Rua de São Paulo", "lon": -1017943.5841351375, "lat": 4679908.6580085242 }, "geometry": { "type": "Point", "coordinates": [ -9.1443428, 38.7078436 ] } },
{ "type": "Feature", "properties": { "osmid": 3624591180, "name": "Minipreço", "addr:street": "Rua da Palma", "lon": -1016950.9482357339, "lat": 4681540.1395245949 }, "geometry": { "type": "Point", "coordinates": [ -9.1354258, 38.7192793 ] } },
{ "type": "Feature", "properties": { "osmid": 3724863324, "name": "Minipreço", "addr:street": "Rua Morais Soares", "lon": -1016226.1581631278, "lat": 4683413.6471470995 }, "geometry": { "type": "Point", "coordinates": [ -9.1289149, 38.7324092 ] } },
{ "type": "Feature", "properties": { "osmid": 3800181615, "name": "Pingo Doce", "addr:street": null, "lon": -1021012.4287253773, "lat": 4685971.8245332744 }, "geometry": { "type": "Point", "coordinates": [ -9.1719107, 38.750333500000011 ] } },
{ "type": "Feature", "properties": { "osmid": 3887679861, "name": "Africa Mix", "addr:street": "Mercado de Benfica", "lon": -1024815.0246072321, "lat": 4685987.8113252465 }, "geometry": { "type": "Point", "coordinates": [ -9.20607, 38.7504455 ] } },
{ "type": "Feature", "properties": { "osmid": 3915251686, "name": "Produtos Orientais e Nacionais", "addr:street": null, "lon": -1017120.2763131795, "lat": 4681069.6727796085 }, "geometry": { "type": "Point", "coordinates": [ -9.1369469, 38.7159818 ] } },
{ "type": "Feature", "properties": { "osmid": 3997125184, "name": "Supermercado", "addr:street": null, "lon": -1016179.4039769948, "lat": 4683663.2953200275 }, "geometry": { "type": "Point", "coordinates": [ -9.1284949, 38.7341586 ] } },
{ "type": "Feature", "properties": { "osmid": 3999660658, "name": "Meu Super", "addr:street": "Rua Maestro Frederico Freitas", "lon": -1022066.8246782732, "lat": 4685649.3106359588 }, "geometry": { "type": "Point", "coordinates": [ -9.1813825, 38.748074 ] } },
{ "type": "Feature", "properties": { "osmid": 4023605758, "name": "Pingo Doce", "addr:street": "Avenida do Santo Condestável", "lon": -1014959.5427329839, "lat": 4685898.3141608601 }, "geometry": { "type": "Point", "coordinates": [ -9.1175367, 38.7498185 ] } },
{ "type": "Feature", "properties": { "osmid": 4108989104, "name": "Minipreço", "addr:street": null, "lon": -1018848.8564981667, "lat": 4684327.731172245 }, "geometry": { "type": "Point", "coordinates": [ -9.152475, 38.7388144 ] } },
{ "type": "Feature", "properties": { "osmid": 4133726066, "name": "Minipreço", "addr:street": "Rua Forno do Tijolo", "lon": -1016826.3483296888, "lat": 4682490.8981575565 }, "geometry": { "type": "Point", "coordinates": [ -9.1343065, 38.7259427 ] } },
{ "type": "Feature", "properties": { "osmid": 4133726070, "name": "Frutaria", "addr:street": "Rua do Zaire", "lon": -1016764.30997747, "lat": 4682571.0191110931 }, "geometry": { "type": "Point", "coordinates": [ -9.1337492, 38.7265042 ] } },
{ "type": "Feature", "properties": { "osmid": 4150371923, "name": "Pingo Doce", "addr:street": null, "lon": -1023670.9496725533, "lat": 4686478.3753755149 }, "geometry": { "type": "Point", "coordinates": [ -9.1957926, 38.7538822 ] } },
{ "type": "Feature", "properties": { "osmid": 4162343099, "name": "Minipreço", "addr:street": "Alameda das Linhas de Torres", "lon": -1019866.6172066423, "lat": 4689185.2885288605 }, "geometry": { "type": "Point", "coordinates": [ -9.1616177, 38.7728428 ] } },
{ "type": "Feature", "properties": { "osmid": 4321443469, "name": "Minipreço", "addr:street": "Largo do Calhariz", "lon": -1018090.2253003595, "lat": 4680318.8685083287 }, "geometry": { "type": "Point", "coordinates": [ -9.1456601, 38.7107191 ] } },
{ "type": "Feature", "properties": { "osmid": 4340743358, "name": "Produtos Naturais", "addr:street": "Campo Pequeno", "lon": -1018066.569908566, "lat": 4684873.691873664 }, "geometry": { "type": "Point", "coordinates": [ -9.1454476, 38.7426398 ] } },
{ "type": "Feature", "properties": { "osmid": 4340743359, "name": "Pingo Doce", "addr:street": "Campo Pequeno", "lon": -1018364.7725605029, "lat": 4685048.2872978728 }, "geometry": { "type": "Point", "coordinates": [ -9.1481264, 38.7438631 ] } },
{ "type": "Feature", "properties": { "osmid": 4355759094, "name": "Pingo Doce", "addr:street": null, "lon": -1018514.8423660414, "lat": 4683309.8025000328 }, "geometry": { "type": "Point", "coordinates": [ -9.1494745, 38.7316815 ] } },
{ "type": "Feature", "properties": { "osmid": 4486453292, "name": "Pomar da Rosa", "addr:street": null, "lon": -1012459.0954627346, "lat": 4690592.0235774592 }, "geometry": { "type": "Point", "coordinates": [ -9.0950748, 38.7826943 ] } },
{ "type": "Feature", "properties": { "osmid": 4500599418, "name": "Amanhecer", "addr:street": "Rua dos Correeiros", "lon": -1017109.3002113873, "lat": 4680187.6221785937 }, "geometry": { "type": "Point", "coordinates": [ -9.1368483, 38.7097991 ] } },
{ "type": "Feature", "properties": { "osmid": 4530470190, "name": "Mini Mercado", "addr:street": "Avenida Luís Bívar", "lon": -1018584.6174228706, "lat": 4683494.2320071692 }, "geometry": { "type": "Point", "coordinates": [ -9.1501013, 38.7329739 ] } },
{ "type": "Feature", "properties": { "osmid": 4595581959, "name": "Glood - Global Food Store", "addr:street": null, "lon": -1024701.7347614517, "lat": 4685982.0018363334 }, "geometry": { "type": "Point", "coordinates": [ -9.2050523, 38.7504048 ] } },
{ "type": "Feature", "properties": { "osmid": 4630327405, "name": "Super Frutas Almeidas", "addr:street": "Avenida António Augusto Aguiar", "lon": -1018629.6016291002, "lat": 4683157.8689990435 }, "geometry": { "type": "Point", "coordinates": [ -9.1505054, 38.7306168 ] } },
{ "type": "Feature", "properties": { "osmid": 4630663876, "name": "Celeiro", "addr:street": "Avenida António Augusto Aguiar", "lon": -1018929.8191638205, "lat": 4683608.8100194298 }, "geometry": { "type": "Point", "coordinates": [ -9.1532023, 38.7337768 ] } },
{ "type": "Feature", "properties": { "osmid": 4693994965, "name": "Cão Grande", "addr:street": "Rua da Escola Politécnica", "lon": -1019015.2457410552, "lat": 4681571.0719576571 }, "geometry": { "type": "Point", "coordinates": [ -9.1539697, 38.7194961 ] } },
{ "type": "Feature", "properties": { "osmid": 4763209707, "name": "Auchan", "addr:street": "Rua Pascoal de Melo", "lon": -1017267.2959646703, "lat": 4683264.6802827911 }, "geometry": { "type": "Point", "coordinates": [ -9.1382676, 38.7313653 ] } },
{ "type": "Feature", "properties": { "osmid": 4764795948, "name": "Minipreço", "addr:street": "Rua Almirante Barroso", "lon": -1017611.1284758833, "lat": 4683273.7703528684 }, "geometry": { "type": "Point", "coordinates": [ -9.1413563, 38.731429 ] } },
{ "type": "Feature", "properties": { "osmid": 4799785781, "name": "Meu Super", "addr:street": "Rua Frei Francisco Foreiro", "lon": -1017023.2279811059, "lat": 4682807.775570659 }, "geometry": { "type": "Point", "coordinates": [ -9.1360751, 38.728163400000014 ] } },
{ "type": "Feature", "properties": { "osmid": 4824117987, "name": "Minipreço", "addr:street": "Avenida Almirante Reis", "lon": -1016811.8990597839, "lat": 4683310.1592546022 }, "geometry": { "type": "Point", "coordinates": [ -9.1341767, 38.731684 ] } },
{ "type": "Feature", "properties": { "osmid": 4824118694, "name": "Fruta King", "addr:street": "Avenida Almirante Reis", "lon": -1016811.4871776681, "lat": 4683344.8073178362 }, "geometry": { "type": "Point", "coordinates": [ -9.134173, 38.731926799999989 ] } },
{ "type": "Feature", "properties": { "osmid": 4837525221, "name": "Pingo Doce", "addr:street": "Rua de Santana À Lapa", "lon": -1019860.9287806627, "lat": 4680274.957863478 }, "geometry": { "type": "Point", "coordinates": [ -9.1615666, 38.7104113 ] } },
{ "type": "Feature", "properties": { "osmid": 4856061124, "name": "Go Natural", "addr:street": "Travessa do Carmo", "lon": -1017560.6228229104, "lat": 4680433.9672232177 }, "geometry": { "type": "Point", "coordinates": [ -9.1409026, 38.7115259 ] } },
{ "type": "Feature", "properties": { "osmid": 4904547692, "name": "Celeiro", "addr:street": "Rua 1º de Dezembro", "lon": -1017480.7510882663, "lat": 4680717.2827942614 }, "geometry": { "type": "Point", "coordinates": [ -9.1401851, 38.7135118 ] } },
{ "type": "Feature", "properties": { "osmid": 4919568823, "name": "Minimercado São José da Ajuda", "addr:street": null, "lon": -1024058.2635768702, "lat": 4679423.1744074849 }, "geometry": { "type": "Point", "coordinates": [ -9.1992719, 38.7044403 ] } },
{ "type": "Feature", "properties": { "osmid": 4924979122, "name": "Conserveira de Lisboa", "addr:street": "Largo Doutor António Sousa de Macedo", "lon": -1018516.1336721346, "lat": 4680373.7214150727 }, "geometry": { "type": "Point", "coordinates": [ -9.1494861, 38.7111036 ] } },
{ "type": "Feature", "properties": { "osmid": 5045272123, "name": "Costcutter", "addr:street": null, "lon": -1019024.0288488788, "lat": 4682342.5297978837 }, "geometry": { "type": "Point", "coordinates": [ -9.1540486, 38.7249029 ] } },
{ "type": "Feature", "properties": { "osmid": 5071890125, "name": "Minipreço", "addr:street": null, "lon": -1016365.385450263, "lat": 4681727.0053795222 }, "geometry": { "type": "Point", "coordinates": [ -9.1301656, 38.720589 ] } },
{ "type": "Feature", "properties": { "osmid": 5140428179, "name": "Continente Bom Dia", "addr:street": null, "lon": -1018547.2363378623, "lat": 4684449.3545382814 }, "geometry": { "type": "Point", "coordinates": [ -9.1497655, 38.7396666 ] } },
{ "type": "Feature", "properties": { "osmid": 5141865824, "name": "Carpet and Snares Record shop", "addr:street": "Rua da Misericórdia", "lon": -1017772.2411749086, "lat": 4680385.0201518834 }, "geometry": { "type": "Point", "coordinates": [ -9.1428036, 38.7111828 ] } },
{ "type": "Feature", "properties": { "osmid": 5141865825, "name": "Sound Club", "addr:street": "Rua da Misericórdia", "lon": -1017773.3432378675, "lat": 4680413.1386535103 }, "geometry": { "type": "Point", "coordinates": [ -9.1428135, 38.7113799 ] } },
{ "type": "Feature", "properties": { "osmid": 5164905587, "name": "My Auchan", "addr:street": "Avenida Duque de Ávila", "lon": -1018550.5981864841, "lat": 4683807.9011195563 }, "geometry": { "type": "Point", "coordinates": [ -9.1497957, 38.7351719 ] } },
{ "type": "Feature", "properties": { "osmid": 5228033741, "name": "My Auchan", "addr:street": "Avenida João XXI", "lon": -1016842.7568226319, "lat": 4684796.8497116212 }, "geometry": { "type": "Point", "coordinates": [ -9.1344539, 38.7421014 ] } },
{ "type": "Feature", "properties": { "osmid": 5383068021, "name": "Charcutaria Ribalta", "addr:street": "Avenida João XXI", "lon": -1016937.6900843803, "lat": 4684859.1483368073 }, "geometry": { "type": "Point", "coordinates": [ -9.1353067, 38.7425379 ] } },
{ "type": "Feature", "properties": { "osmid": 5409637181, "name": "Miosótis", "addr:street": "Rua Latino Coelho", "lon": -1018688.2113410026, "lat": 4683544.021696344 }, "geometry": { "type": "Point", "coordinates": [ -9.1510319, 38.7333228 ] } },
{ "type": "Feature", "properties": { "osmid": 5427721783, "name": "Minipreço", "addr:street": "Avenida Luís Bívar", "lon": -1018535.0468536202, "lat": 4683686.9704012852 }, "geometry": { "type": "Point", "coordinates": [ -9.149656, 38.7343245 ] } },
{ "type": "Feature", "properties": { "osmid": 5427721798, "name": "16", "addr:street": null, "lon": -1018290.5113281948, "lat": 4683539.6263800887 }, "geometry": { "type": "Point", "coordinates": [ -9.1474593, 38.733292 ] } },
{ "type": "Feature", "properties": { "osmid": 5433711050, "name": "Continente", "addr:street": "Avenida Infante Santo", "lon": -1020440.1018273617, "lat": 4680056.1350220973 }, "geometry": { "type": "Point", "coordinates": [ -9.1667694, 38.7088774 ] } },
{ "type": "Feature", "properties": { "osmid": 5494824406, "name": "Ten to Ten", "addr:street": "Rua da Misericórdia", "lon": -1017772.8200362604, "lat": 4680432.1696874425 }, "geometry": { "type": "Point", "coordinates": [ -9.1428088, 38.7115133 ] } },
{ "type": "Feature", "properties": { "osmid": 5534438721, "name": "Bomercado", "addr:street": "Rua dos Cavaleiros", "lon": -1016721.7414041903, "lat": 4681097.4079577224 }, "geometry": { "type": "Point", "coordinates": [ -9.1333668, 38.7161762 ] } },
{ "type": "Feature", "properties": { "osmid": 5565322521, "name": "Namaste", "addr:street": null, "lon": -1018104.0845769633, "lat": 4682099.7057638401 }, "geometry": { "type": "Point", "coordinates": [ -9.1457846, 38.7232011 ] } },
{ "type": "Feature", "properties": { "osmid": 5630843129, "name": "Celeiro", "addr:street": "Avenida Engenheiro Duarte Pacheco", "lon": -1019911.4789614318, "lat": 4682160.2899473077 }, "geometry": { "type": "Point", "coordinates": [ -9.1620207, 38.7236257 ] } },
{ "type": "Feature", "properties": { "osmid": 5630843132, "name": "Celeiro", "addr:street": "Rua Cidade de Bolama", "lon": -1014555.4975092007, "lat": 4687652.5019576466 }, "geometry": { "type": "Point", "coordinates": [ -9.1139071, 38.762107 ] } },
{ "type": "Feature", "properties": { "osmid": 5630843133, "name": "Celeiro", "addr:street": "Rua 4 de Infantaria", "lon": -1020208.5350226136, "lat": 4681461.4819659814 }, "geometry": { "type": "Point", "coordinates": [ -9.1646892, 38.718728 ] } },
{ "type": "Feature", "properties": { "osmid": 5630843134, "name": "Celeiro", "addr:street": "Rua Morais Soares", "lon": -1016376.1389130738, "lat": 4683424.0787621187 }, "geometry": { "type": "Point", "coordinates": [ -9.1302622, 38.7324823 ] } },
{ "type": "Feature", "properties": { "osmid": 5630843159, "name": "Celeiro", "addr:street": "Avenida da República", "lon": -1018268.2808258833, "lat": 4684801.7165549956 }, "geometry": { "type": "Point", "coordinates": [ -9.1472596, 38.7421355 ] } },
{ "type": "Feature", "properties": { "osmid": 5630843160, "name": "Celeiro", "addr:street": "Avenida de Roma", "lon": -1017282.301832029, "lat": 4684949.6639938559 }, "geometry": { "type": "Point", "coordinates": [ -9.1384024, 38.7431721 ] } },
{ "type": "Feature", "properties": { "osmid": 5631421804, "name": "VillaBio", "addr:street": "Rua Gonçalves Zarco", "lon": -1024668.8287199733, "lat": 4679594.5096919034 }, "geometry": { "type": "Point", "coordinates": [ -9.2047567, 38.7056414 ] } },
{ "type": "Feature", "properties": { "osmid": 5631421806, "name": "BioIno", "addr:street": "Alameda dos Oceanos", "lon": -1012682.2353820297, "lat": 4686864.4826081721 }, "geometry": { "type": "Point", "coordinates": [ -9.0970793, 38.756587 ] } },
{ "type": "Feature", "properties": { "osmid": 5631421807, "name": "Alfazema Mercado Biológico", "addr:street": "Rua de Sant'Ana à Lapa", "lon": -1020112.1546074848, "lat": 4680391.0689757233 }, "geometry": { "type": "Point", "coordinates": [ -9.1638234, 38.7112252 ] } },
{ "type": "Feature", "properties": { "osmid": 5631421813, "name": "Go Natural", "addr:street": "Rua Professor João Barreira", "lon": -1020896.3781562253, "lat": 4687468.5111160772 }, "geometry": { "type": "Point", "coordinates": [ -9.1708682, 38.7608182 ] } },
{ "type": "Feature", "properties": { "osmid": 5631421815, "name": "Go Natural", "addr:street": "Rua Azedo Gneco", "lon": -1020598.8434212331, "lat": 4681466.4185552979 }, "geometry": { "type": "Point", "coordinates": [ -9.1681954, 38.7187626 ] } },
{ "type": "Feature", "properties": { "osmid": 5631421816, "name": "Go Natural", "addr:street": "Avenida 5 de Outubro", "lon": -1018355.7445497996, "lat": 4684107.8223423092 }, "geometry": { "type": "Point", "coordinates": [ -9.1480453, 38.7372735 ] } },
{ "type": "Feature", "properties": { "osmid": 5631421817, "name": "Go Natural", "addr:street": "Rua Joaquim Bonifácio", "lon": -1017629.2067611882, "lat": 4682711.8851174302 }, "geometry": { "type": "Point", "coordinates": [ -9.1415187, 38.7274914 ] } },
{ "type": "Feature", "properties": { "osmid": 5631421819, "name": "BioMercado", "addr:street": "Avenida Duque de Ávila", "lon": -1018218.4653537533, "lat": 4683781.1004424812 }, "geometry": { "type": "Point", "coordinates": [ -9.1468121, 38.7349841 ] } },
{ "type": "Feature", "properties": { "osmid": 5907842588, "name": "Minimercado Dia Portugal", "addr:street": null, "lon": -1018134.7308327784, "lat": 4682028.3778377958 }, "geometry": { "type": "Point", "coordinates": [ -9.1460599, 38.7227012 ] } },
{ "type": "Feature", "properties": { "osmid": 6022965174, "name": "Recheio Cash&Carry", "addr:street": null, "lon": -1016936.8663201485, "lat": 4681651.7421299899 }, "geometry": { "type": "Point", "coordinates": [ -9.1352993, 38.7200615 ] } },
{ "type": "Feature", "properties": { "osmid": 6023083313, "name": "Auchan", "addr:street": null, "lon": -1016607.3940232476, "lat": 4682040.734270147 }, "geometry": { "type": "Point", "coordinates": [ -9.1323396, 38.7227878 ] } },
{ "type": "Feature", "properties": { "osmid": 6027673329, "name": "Pingo Doce", "addr:street": null, "lon": -1018081.887470499, "lat": 4684882.6263825558 }, "geometry": { "type": "Point", "coordinates": [ -9.1455852, 38.7427024 ] } },
{ "type": "Feature", "properties": { "osmid": 6124616185, "name": "Green Beans", "addr:street": "Rua das Chagas", "lon": -1018056.2728556674, "lat": 4680250.2778244456 }, "geometry": { "type": "Point", "coordinates": [ -9.1453551, 38.7102383 ] } },
{ "type": "Feature", "properties": { "osmid": 6203981885, "name": "Auchan", "addr:street": null, "lon": -1022020.8608605243, "lat": 4685473.6344236191 }, "geometry": { "type": "Point", "coordinates": [ -9.1809696, 38.7468432 ] } },
{ "type": "Feature", "properties": { "osmid": 6206335524, "name": "Pingo Doce", "addr:street": "R. Francisco Metrass", "lon": -1020384.8873599285, "lat": 4681352.7634661226 }, "geometry": { "type": "Point", "coordinates": [ -9.1662734, 38.717966 ] } },
{ "type": "Feature", "properties": { "osmid": 6206337793, "name": "Minipreço", "addr:street": "R. Francisco Metrass", "lon": -1020424.7174737343, "lat": 4681307.5785723263 }, "geometry": { "type": "Point", "coordinates": [ -9.1666312, 38.7176493 ] } },
{ "type": "Feature", "properties": { "osmid": 6307188788, "name": "63 - 65", "addr:street": null, "lon": -1014375.8167191112, "lat": 4682499.2312781503 }, "geometry": { "type": "Point", "coordinates": [ -9.112293, 38.7260011 ] } },
{ "type": "Feature", "properties": { "osmid": 6307214385, "name": "113", "addr:street": null, "lon": -1016168.906549013, "lat": 4683801.2366208583 }, "geometry": { "type": "Point", "coordinates": [ -9.1284006, 38.7351252 ] } },
{ "type": "Feature", "properties": { "osmid": 6307214585, "name": "88 D", "addr:street": null, "lon": -1015421.2180571508, "lat": 4682639.4827150721 }, "geometry": { "type": "Point", "coordinates": [ -9.121684, 38.726984 ] } },
{ "type": "Feature", "properties": { "osmid": 6307214586, "name": "35 A", "addr:street": null, "lon": -1015344.7749628233, "lat": 4682619.1347930925 }, "geometry": { "type": "Point", "coordinates": [ -9.1209973, 38.7268414 ] } },
{ "type": "Feature", "properties": { "osmid": 6366440072, "name": "Lidl - Estação de Entrecampos", "addr:street": null, "lon": -1018482.8268804891, "lat": 4685115.2974534584 }, "geometry": { "type": "Point", "coordinates": [ -9.1491869, 38.7443326 ] } },
{ "type": "Feature", "properties": { "osmid": 6384561971, "name": "mini mercado", "addr:street": "Rua de Ponta Delgada", "lon": -1017272.8396753117, "lat": 4683457.4714182271 }, "geometry": { "type": "Point", "coordinates": [ -9.1383174, 38.7327163 ] } },
{ "type": "Feature", "properties": { "osmid": 6453992485, "name": "Small supermarket", "addr:street": null, "lon": -1017154.1397022788, "lat": 4680972.9711899543 }, "geometry": { "type": "Point", "coordinates": [ -9.1372511, 38.715304 ] } },
{ "type": "Feature", "properties": { "osmid": 6576713685, "name": "A Mariazinha", "addr:street": "Avenida do Rio de Janeiro", "lon": -1017386.4300837171, "lat": 4686637.1532089496 }, "geometry": { "type": "Point", "coordinates": [ -9.1393378, 38.7549945 ] } },
{ "type": "Feature", "properties": { "osmid": 6643659215, "name": "Continente", "addr:street": "Avenida Duque de Loulé", "lon": -1018228.1167536052, "lat": 4682631.9057491962 }, "geometry": { "type": "Point", "coordinates": [ -9.1468988, 38.7269309 ] } },
{ "type": "Feature", "properties": { "osmid": 6778048086, "name": "My Auchan", "addr:street": null, "lon": -1018562.3757886101, "lat": 4686670.4992950624 }, "geometry": { "type": "Point", "coordinates": [ -9.1499015, 38.755228099999989 ] } },
{ "type": "Feature", "properties": { "osmid": 6799971786, "name": "Pingo Doce", "addr:street": "Rua 1º de Dezembro", "lon": -1017491.3041759934, "lat": 4680739.980907782 }, "geometry": { "type": "Point", "coordinates": [ -9.1402799, 38.7136709 ] } },
{ "type": "Feature", "properties": { "osmid": 7539039885, "name": "Lidl", "addr:street": null, "lon": -1020465.0262613505, "lat": 4684510.0525906449 }, "geometry": { "type": "Point", "coordinates": [ -9.1669933, 38.7400919 ] } },
{ "type": "Feature", "properties": { "osmid": 7659417312, "name": "Le Joyeux Goumet", "addr:street": null, "lon": -1016391.3228916178, "lat": 4681441.935378572 }, "geometry": { "type": "Point", "coordinates": [ -9.1303986, 38.718591 ] } },
{ "type": "Feature", "properties": { "osmid": 7734906065, "name": "MyAuchan", "addr:street": null, "lon": -1019358.6218423563, "lat": 4688463.0834268713 }, "geometry": { "type": "Point", "coordinates": [ -9.1570543, 38.7677846 ] } },
{ "type": "Feature", "properties": { "osmid": 7900298592, "name": "Spar", "addr:street": null, "lon": -1019373.5163902245, "lat": 4690660.8838310456 }, "geometry": { "type": "Point", "coordinates": [ -9.1571881, 38.7831765 ] } },
{ "type": "Feature", "properties": { "osmid": 8038234229, "name": "Late Night Shop", "addr:street": null, "lon": -1018837.969451967, "lat": 4680149.5182616105 }, "geometry": { "type": "Point", "coordinates": [ -9.1523772, 38.709532 ] } },
{ "type": "Feature", "properties": { "osmid": 8108472293, "name": "Talho Corte Fino", "addr:street": null, "lon": -1021433.1941366778, "lat": 4686638.9232895439 }, "geometry": { "type": "Point", "coordinates": [ -9.1756905, 38.7550069 ] } },
{ "type": "Feature", "properties": { "osmid": 8108472299, "name": "Alecrim aos Molhos - Biomercearia & Biocafetaria", "addr:street": "Rua António Albino Machado", "lon": -1020648.4139904833, "lat": 4686388.3029225469 }, "geometry": { "type": "Point", "coordinates": [ -9.1686407, 38.7532512 ] } },
{ "type": "Feature", "properties": { "osmid": 8242762518, "name": "Charcutaria A Diplomata", "addr:street": "Avenida João XXI", "lon": -1017219.3840558326, "lat": 4684873.691873664 }, "geometry": { "type": "Point", "coordinates": [ -9.1378372, 38.7426398 ] } },
{ "type": "Feature", "properties": { "osmid": 8660673044, "name": "Minipreço", "addr:street": "Estrada de Benfica", "lon": -1021391.7387583064, "lat": 4685009.0662227254 }, "geometry": { "type": "Point", "coordinates": [ -9.1753181, 38.7435883 ] } },
{ "type": "Feature", "properties": { "osmid": 8664721306, "name": "Minipreço", "addr:street": "Estrada de Benfica", "lon": -1021899.4224280182, "lat": 4685190.9002815112 }, "geometry": { "type": "Point", "coordinates": [ -9.1798787, 38.7448623 ] } },
{ "type": "Feature", "properties": { "osmid": 8665598715, "name": "MyAuchan", "addr:street": "Estrada de Benfica", "lon": -1022806.35345146, "lat": 4685538.1780944448 }, "geometry": { "type": "Point", "coordinates": [ -9.1880258, 38.7472954 ] } },
{ "type": "Feature", "properties": { "osmid": 8685265792, "name": "Minimercado Calçada da Ajuda", "addr:street": null, "lon": -1024100.4202680336, "lat": 4679236.7216370981 }, "geometry": { "type": "Point", "coordinates": [ -9.1996506, 38.7031332 ] } },
{ "type": "Feature", "properties": { "osmid": 8685624864, "name": "Pingo Doce", "addr:street": null, "lon": -1012584.0181953027, "lat": 4689530.7463217126 }, "geometry": { "type": "Point", "coordinates": [ -9.096197, 38.7752622 ] } },
{ "type": "Feature", "properties": { "osmid": 8685881397, "name": "Minipreço", "addr:street": "Rua dos Lusíadas", "lon": -1022062.0935999145, "lat": 4679466.0971138021 }, "geometry": { "type": "Point", "coordinates": [ -9.18134, 38.7047412 ] } },
{ "type": "Feature", "properties": { "osmid": 8687846375, "name": "Go Natural", "addr:street": null, "lon": -1020386.8131871191, "lat": 4681312.3010763284 }, "geometry": { "type": "Point", "coordinates": [ -9.1662907, 38.7176824 ] } },
{ "type": "Feature", "properties": { "osmid": 8691418862, "name": "Pingo Doce", "addr:street": "Rua Tomás Ribeiro", "lon": -1018500.2817766456, "lat": 4683302.0966043891 }, "geometry": { "type": "Point", "coordinates": [ -9.1493437, 38.7316275 ] } },
{ "type": "Feature", "properties": { "osmid": 8747696603, "name": "Don Euro", "addr:street": null, "lon": -1020007.2471193613, "lat": 4682425.4748361204 }, "geometry": { "type": "Point", "coordinates": [ -9.162881, 38.7254842 ] } },
{ "type": "Feature", "properties": { "osmid": 8747702056, "name": "Minipreço", "addr:street": null, "lon": -1019943.6168984239, "lat": 4682932.6913620336 }, "geometry": { "type": "Point", "coordinates": [ -9.1623094, 38.7290388 ] } },
{ "type": "Feature", "properties": { "osmid": 8766243124, "name": "Mercado Panda", "addr:street": null, "lon": -1016072.5483977823, "lat": 4682807.0763661722 }, "geometry": { "type": "Point", "coordinates": [ -9.127535, 38.7281585 ] } },
{ "type": "Feature", "properties": { "osmid": 8766243171, "name": "Continente", "addr:street": null, "lon": -1016116.1856381731, "lat": 4682986.6022597915 }, "geometry": { "type": "Point", "coordinates": [ -9.127927, 38.7294166 ] } },
{ "type": "Feature", "properties": { "osmid": 8766243173, "name": "Minipreço", "addr:street": null, "lon": -1016116.8646870671, "lat": 4682969.3929798203 }, "geometry": { "type": "Point", "coordinates": [ -9.1279331, 38.729296 ] } },
{ "type": "Feature", "properties": { "osmid": 8917318017, "name": "Ali Minimercado", "addr:street": null, "lon": -1016991.2570233501, "lat": 4680627.475228915 }, "geometry": { "type": "Point", "coordinates": [ -9.1357879, 38.7128823 ] } },
{ "type": "Feature", "properties": { "osmid": 8919974417, "name": "Continente Bom Dia", "addr:street": null, "lon": -1017083.852575792, "lat": 4680918.386129817 }, "geometry": { "type": "Point", "coordinates": [ -9.1366197, 38.7149214 ] } },
{ "type": "Feature", "properties": { "osmid": 9384816684, "name": "Auchan", "addr:street": "Rua Adelaide Cabete", "lon": -1022657.4636325241, "lat": 4687077.8271196485 }, "geometry": { "type": "Point", "coordinates": [ -9.1866883, 38.7580815 ] } },
{ "type": "Feature", "properties": { "osmid": 9413567641, "name": "Supermercado Chiado", "addr:street": null, "lon": -1018391.3556549044, "lat": 4680355.2896642117 }, "geometry": { "type": "Point", "coordinates": [ -9.1483652, 38.7109744 ] } },
{ "type": "Feature", "properties": { "osmid": 9683104466, "name": "MADRAGOA MINIMERCADO & FRUTARIA", "addr:street": "Rua da Esperança", "lon": -1019187.8577434792, "lat": 4679918.1587849502 }, "geometry": { "type": "Point", "coordinates": [ -9.1555203, 38.7079102 ] } },
{ "type": "Feature", "properties": { "osmid": 9718767117, "name": "Uddin - Mercado", "addr:street": "Rua de Campolide", "lon": -1019958.4446545976, "lat": 4682811.1003599912 }, "geometry": { "type": "Point", "coordinates": [ -9.1624426, 38.7281867 ] } },
{ "type": "Feature", "properties": { "osmid": 9720319531, "name": "Merciaria Sta.Cruz", "addr:street": null, "lon": -1019420.7047223717, "lat": 4682798.3291794136 }, "geometry": { "type": "Point", "coordinates": [ -9.157612, 38.7280972 ] } },
{ "type": "Feature", "properties": { "osmid": 9734414523, "name": "Unilabs", "addr:street": null, "lon": -1021606.8302784172, "lat": 4679547.3925584061 }, "geometry": { "type": "Point", "coordinates": [ -9.1772503, 38.7053111 ] } },
{ "type": "Feature", "properties": { "osmid": 9735400472, "name": "meu super", "addr:street": null, "lon": -1019516.7289151299, "lat": 4690503.5855316985 }, "geometry": { "type": "Point", "coordinates": [ -9.1584746, 38.782075 ] } },
{ "type": "Feature", "properties": { "osmid": 9737955006, "name": "Woori - Sabores Coreanos", "addr:street": "Rua de Artilharia Um", "lon": -1019056.7011194265, "lat": 4682152.7418746715 }, "geometry": { "type": "Point", "coordinates": [ -9.1543421, 38.7235728 ] } },
{ "type": "Feature", "properties": { "osmid": 9796685453, "name": "ALDI", "addr:street": "Rua Filipe Folque", "lon": -1018560.138266845, "lat": 4683257.0600419072 }, "geometry": { "type": "Point", "coordinates": [ -9.1498814, 38.7313119 ] } },
{ "type": "Feature", "properties": { "osmid": 9813369643, "name": "Aquarela supermercados", "addr:street": null, "lon": -1015749.7330064309, "lat": 4680781.4254251597 }, "geometry": { "type": "Point", "coordinates": [ -9.1246351, 38.7139614 ] } },
{ "type": "Feature", "properties": { "osmid": 9828421517, "name": "Continente Bom Dia", "addr:street": null, "lon": -1016994.7747192592, "lat": 4681578.7622773042 }, "geometry": { "type": "Point", "coordinates": [ -9.1358195, 38.71955 ] } },
{ "type": "Feature", "properties": { "osmid": 9842735533, "name": "Supermercado Chen", "addr:street": "Rua da Palma", "lon": -1016972.6889322859, "lat": 4681328.9653979549 }, "geometry": { "type": "Point", "coordinates": [ -9.1356211, 38.7177992 ] } },
{ "type": "Feature", "properties": { "osmid": 9845370054, "name": "Desi Food Store", "addr:street": null, "lon": -1016902.5910489333, "lat": 4681843.7465559496 }, "geometry": { "type": "Point", "coordinates": [ -9.1349914, 38.7214072 ] } },
{ "type": "Feature", "properties": { "osmid": 9873910246, "name": "Covirán", "addr:street": "Rua de São Gens", "lon": -1016399.8054368163, "lat": 4681535.0316872047 }, "geometry": { "type": "Point", "coordinates": [ -9.1304748, 38.7192435 ] } },
{ "type": "Feature", "properties": { "osmid": 9970131485, "name": "Auchan", "addr:street": null, "lon": -1017174.2885301124, "lat": 4683778.9170038439 }, "geometry": { "type": "Point", "coordinates": [ -9.1374321, 38.7349688 ] } },
{ "type": "Feature", "properties": { "osmid": 9995465430, "name": "Minipreço", "addr:street": null, "lon": -1017882.7925612151, "lat": 4682334.9387838775 }, "geometry": { "type": "Point", "coordinates": [ -9.1437967, 38.7248497 ] } },
{ "type": "Feature", "properties": { "osmid": 10008466386, "name": "Lidl", "addr:street": null, "lon": -1018362.2901358581, "lat": 4685138.1766341049 }, "geometry": { "type": "Point", "coordinates": [ -9.1481041, 38.7444929 ] } },
{ "type": "Feature", "properties": { "osmid": 10008466387, "name": "Continente", "addr:street": null, "lon": -1018262.6703235474, "lat": 4684744.584812833 }, "geometry": { "type": "Point", "coordinates": [ -9.1472092, 38.7417352 ] } },
{ "type": "Feature", "properties": { "osmid": 10009627765, "name": "Lidl", "addr:street": null, "lon": -1019087.5143544782, "lat": 4683695.3330410784 }, "geometry": { "type": "Point", "coordinates": [ -9.1546189, 38.7343831 ] } },
{ "type": "Feature", "properties": { "osmid": 10144933961, "name": "Minipreço", "addr:street": null, "lon": -1015739.7142522596, "lat": 4687269.9195162859 }, "geometry": { "type": "Point", "coordinates": [ -9.1245451, 38.7594271 ] } },
{ "type": "Feature", "properties": { "osmid": 10247750309, "name": "ALDI", "addr:street": null, "lon": -1017987.9115563714, "lat": 4681685.457143507 }, "geometry": { "type": "Point", "coordinates": [ -9.144741, 38.7202978 ] } },
{ "type": "Feature", "properties": { "osmid": 10250610618, "name": "Aldi", "addr:street": null, "lon": -1017942.3818846369, "lat": 4681710.3118714923 }, "geometry": { "type": "Point", "coordinates": [ -9.144332, 38.720472 ] } },
{ "type": "Feature", "properties": { "osmid": 10281676805, "name": "My Auchan", "addr:street": "Rua General João de Almeida", "lon": -1024158.4845144317, "lat": 4678950.3946746355 }, "geometry": { "type": "Point", "coordinates": [ -9.2001722, 38.7011259 ] } },
{ "type": "Feature", "properties": { "osmid": 10286367139, "name": "Continente Bom Dia", "addr:street": "Avenida de Paris", "lon": -1016818.2108749117, "lat": 4684632.4773662444 }, "geometry": { "type": "Point", "coordinates": [ -9.1342334, 38.7409497 ] } },
{ "type": "Feature", "properties": { "osmid": 10289180709, "name": "Pingo Doce", "addr:street": null, "lon": -1017490.4136200672, "lat": 4680748.7976619191 }, "geometry": { "type": "Point", "coordinates": [ -9.1402719, 38.7137327 ] } },
{ "type": "Feature", "properties": { "osmid": 10573178144, "name": "Continente", "addr:street": null, "lon": -1017457.841537061, "lat": 4682180.9508627998 }, "geometry": { "type": "Point", "coordinates": [ -9.1399793, 38.7237705 ] } },
{ "type": "Feature", "properties": { "osmid": 10576551858, "name": "ALDI", "addr:street": "R. Tomás da Anunciação", "lon": -1020307.1974873036, "lat": 4681089.5182620343 }, "geometry": { "type": "Point", "coordinates": [ -9.1655755, 38.7161209 ] } },
{ "type": "Feature", "properties": { "osmid": 97680513, "name": "Pingo Doce", "addr:street": null, "lon": -1018127.2967329156, "lat": 4685820.7331168428 }, "geometry": { "type": "Point", "coordinates": [ -9.145993118344693, 38.749274977602177 ] } },
{ "type": "Feature", "properties": { "osmid": 98625344, "name": "Minipreço", "addr:street": null, "lon": -1016719.2742138301, "lat": 4683823.6930724159 }, "geometry": { "type": "Point", "coordinates": [ -9.133344636851904, 38.735282558493537 ] } },
{ "type": "Feature", "properties": { "osmid": 98665262, "name": "Continente", "addr:street": "Rua Carlos Mardel", "lon": -1016697.8415385217, "lat": 4683608.0689682681 }, "geometry": { "type": "Point", "coordinates": [ -9.133152103853812, 38.733771607148043 ] } },
{ "type": "Feature", "properties": { "osmid": 98735232, "name": "Pingo Doce", "addr:street": "Rua Carlos Mardel", "lon": -1016693.2777709938, "lat": 4683635.7381054536 }, "geometry": { "type": "Point", "coordinates": [ -9.133111106832578, 38.733965495979071 ] } },
{ "type": "Feature", "properties": { "osmid": 115056993, "name": "Pingo Doce", "addr:street": "Rua Cordeiro Ferreira", "lon": -1019676.7623458423, "lat": 4689106.5573941376 }, "geometry": { "type": "Point", "coordinates": [ -9.159912204767791, 38.772291398126747 ] } },
{ "type": "Feature", "properties": { "osmid": 131697918, "name": "Pingo Doce", "addr:street": "Rua de João Saraiva", "lon": -1017553.5451401121, "lat": 4686909.8626151131 }, "geometry": { "type": "Point", "coordinates": [ -9.140839020093662, 38.756904894184139 ] } },
{ "type": "Feature", "properties": { "osmid": 146977274, "name": "Lidl", "addr:street": null, "lon": -1014438.3073510038, "lat": 4682252.0371373678 }, "geometry": { "type": "Point", "coordinates": [ -9.112854362897432, 38.724268698942296 ] } },
{ "type": "Feature", "properties": { "osmid": 151686094, "name": "Pingo Doce", "addr:street": "Avenida Fernando Pessoa", "lon": -1012747.7658142674, "lat": 4687151.4910858935 }, "geometry": { "type": "Point", "coordinates": [ -9.097667969888542, 38.758597516306878 ] } },
{ "type": "Feature", "properties": { "osmid": 158671514, "name": "Lidl", "addr:street": null, "lon": -1017506.535093228, "lat": 4686756.8427204285 }, "geometry": { "type": "Point", "coordinates": [ -9.140416721657429, 38.755832959761577 ] } },
{ "type": "Feature", "properties": { "osmid": 181350526, "name": "Pingo Doce", "addr:street": "Rua da Graça", "lon": -1016362.782944559, "lat": 4681585.931124121 }, "geometry": { "type": "Point", "coordinates": [ -9.13014222129349, 38.719600245058672 ] } },
{ "type": "Feature", "properties": { "osmid": 237563651, "name": "Minipreço", "addr:street": null, "lon": -1018690.8653460396, "lat": 4680924.5102668758 }, "geometry": { "type": "Point", "coordinates": [ -9.151055741332886, 38.714964325672334 ] } },
{ "type": "Feature", "properties": { "osmid": 241511231, "name": "Lidl", "addr:street": null, "lon": -1013470.6519354261, "lat": 4686953.628759237 }, "geometry": { "type": "Point", "coordinates": [ -9.104161766401688, 38.757211481660633 ] } },
{ "type": "Feature", "properties": { "osmid": 241511232, "name": "Staples", "addr:street": null, "lon": -1013427.6343455754, "lat": 4686841.5352572445 }, "geometry": { "type": "Point", "coordinates": [ -9.1037753328172, 38.756426249608943 ] } },
{ "type": "Feature", "properties": { "osmid": 304358816, "name": "Continente Bom Dia", "addr:street": null, "lon": -1017798.3878901075, "lat": 4686801.1585522871 }, "geometry": { "type": "Point", "coordinates": [ -9.143038479938927, 38.756143402525538 ] } },
{ "type": "Feature", "properties": { "osmid": 312135342, "name": "Pingo Doce", "addr:street": "Rua Alfredo da Silva", "lon": -1023423.0980519631, "lat": 4679108.0504753496 }, "geometry": { "type": "Point", "coordinates": [ -9.1935661110103, 38.702231155621043 ] } },
{ "type": "Feature", "properties": { "osmid": 379684636, "name": "Lidl", "addr:street": null, "lon": -1014848.0972773636, "lat": 4687750.3951345487 }, "geometry": { "type": "Point", "coordinates": [ -9.116535568438707, 38.762792702504697 ] } },
{ "type": "Feature", "properties": { "osmid": 408028987, "name": "Continente", "addr:street": null, "lon": -1024668.8361004897, "lat": 4685902.7106173821 }, "geometry": { "type": "Point", "coordinates": [ -9.204756766300308, 38.749849300861328 ] } },
{ "type": "Feature", "properties": { "osmid": 408028990, "name": "Pingo Doce", "addr:street": null, "lon": -1024593.9128935054, "lat": 4685867.3751771487 }, "geometry": { "type": "Point", "coordinates": [ -9.204083719680614, 38.749601746122281 ] } },
{ "type": "Feature", "properties": { "osmid": 427935105, "name": "ALDI", "addr:street": null, "lon": -1020402.6394603411, "lat": 4688630.343624508 }, "geometry": { "type": "Point", "coordinates": [ -9.166432869831258, 38.768956093495376 ] } },
{ "type": "Feature", "properties": { "osmid": 519200562, "name": "Continente", "addr:street": "Avenida David Mourão-Ferreira", "lon": -1019267.4493468466, "lat": 4689474.7548166271 }, "geometry": { "type": "Point", "coordinates": [ -9.156235283537924, 38.77487007127948 ] } },
{ "type": "Feature", "properties": { "osmid": 525748941, "name": "Aldi", "addr:street": null, "lon": -1018085.6442317386, "lat": 4691419.4612805713 }, "geometry": { "type": "Point", "coordinates": [ -9.145618947560404, 38.788488289677296 ] } },
{ "type": "Feature", "properties": { "osmid": 573295529, "name": "Continente", "addr:street": null, "lon": -1024688.5467812167, "lat": 4679757.3076163391 }, "geometry": { "type": "Point", "coordinates": [ -9.204933830357882, 38.706782632437672 ] } },
{ "type": "Feature", "properties": { "osmid": 636444753, "name": "Pingo Doce", "addr:street": "Praça do Duque da Terceira", "lon": -1017988.9763828198, "lat": 4679602.2454274595 }, "geometry": { "type": "Point", "coordinates": [ -9.144750565498736, 38.705695628820692 ] } },
{ "type": "Feature", "properties": { "osmid": 681510564, "name": "Continente Modelo", "addr:street": null, "lon": -1014491.0624842418, "lat": 4687067.8738820422 }, "geometry": { "type": "Point", "coordinates": [ -9.113328270322468, 38.758011777254275 ] } },
{ "type": "Feature", "properties": { "osmid": 993802971, "name": "Continente", "addr:street": null, "lon": -1018406.6665898304, "lat": 4691336.6926203761 }, "geometry": { "type": "Point", "coordinates": [ -9.148502740468583, 38.787908737616192 ] } },
{ "type": "Feature", "properties": { "osmid": 1057242964, "name": "Celeiro", "addr:street": "Avenida Dom João II", "lon": -1012667.4399637419, "lat": 4688441.8968614107 }, "geometry": { "type": "Point", "coordinates": [ -9.096946390496173, 38.767636207533826 ] } },
{ "type": "Feature", "properties": { "osmid": 1057243018, "name": "Continente", "addr:street": null, "lon": -1012763.6802883856, "lat": 4688512.1536774905 }, "geometry": { "type": "Point", "coordinates": [ -9.097810932041932, 38.768128290930299 ] } },
{ "type": "Feature", "properties": { "osmid": 1117657011, "name": "Lidl", "addr:street": "Rua José Farinha", "lon": -1023805.3316406688, "lat": 4687355.2673260188 }, "geometry": { "type": "Point", "coordinates": [ -9.196999773758682, 38.760024950050628 ] } }
]
}
